[
    {
        "id": "1",
        "name": "Swedish Dental (Dentalum)",
        "address": "Kungsholmstorg 8, 112 21 Stockholm",
        "phone": "+46 8 651 36 20",
        "hours": "",
        "lat": 59.3318,
        "lng": 18.0392,
        "website": "https://swedishdental.com",
        "description": "Kungsholmen, centrala Stockholm."
    },
    {
        "id": "2",
        "name": "Erikssonkliniken",
        "address": "Götgatan 21, Stockholm",
        "phone": "+46 8 556 987 00",
        "hours": "",
        "lat": 59.3175,
        "lng": 18.0732,
        "website": "https://erikssonkliniken.se",
        "description": "Södermalm, Stockholm."
    },
    {
        "id": "3",
        "name": "Samdent Arenastaden",
        "address": "Evenemangsgatan 21, Solna",
        "phone": "+46 8 333 455",
        "hours": "",
        "lat": 59.3708,
        "lng": 18.0018,
        "website": "https://samdent.se",
        "description": "Precis utanför Mall of Scandinavia, Solna."
    },
    {
        "id": "4",
        "name": "Wasa Tandklinik",
        "address": "Tegnérgatan 8, Stockholm",
        "phone": "+46 8 21 01 85",
        "hours": "",
        "lat": 59.3408,
        "lng": 18.0573,
        "website": "https://wasatandklinik.se",
        "description": "Vasastan, centrala Stockholm."
    },
    {
        "id": "5",
        "name": "Tegnértandläkarna",
        "address": "Tegnérgatan 3, 2 tr, Stockholm",
        "phone": "+46 8 10 99 01",
        "hours": "",
        "lat": 59.3404,
        "lng": 18.0565,
        "website": "https://tegnertandlakarna.se",
        "description": "Vasastan, centrala Stockholm."
    },
    {
        "id": "6",
        "name": "S&S Dental",
        "address": "Storgatan 70C, Huvudsta Centrum, Solna",
        "phone": "+46 70 438 13 72",
        "hours": "",
        "lat": 59.3491,
        "lng": 18.0006,
        "website": "https://ssdental.se",
        "description": "Huvudsta Centrum, Solna."
    },
    {
        "id": "7",
        "name": "Dentalum Tandläkarhuset Enköping",
        "address": "Kryddgårdsgatan 21A, Enköping",
        "phone": "+46 171 42 81 60",
        "hours": "",
        "lat": 59.6357,
        "lng": 17.0767,
        "website": "https://dentalum.se",
        "description": "Enköping."
    },
    {
        "id": "8",
        "name": "Tandvårdsgruppen Fruängen",
        "address": "Fruängsgången 2, Hägersten",
        "phone": "+46 8 464 64 70",
        "hours": "",
        "lat": 59.2852,
        "lng": 17.9654,
        "website": "https://tandvardsgruppen.se",
        "description": "Fruängen, södra Stockholm."
    },
    {
        "id": "9",
        "name": "Dorell Tandvård",
        "address": "Nytorgsgatan 3A, Örnsköldsvik",
        "phone": "+46 660 14 900",
        "hours": "",
        "lat": 63.2908,
        "lng": 18.7153,
        "website": "https://dorelltandvard.se",
        "description": "Örnsköldsvik."
    }
]